[
  {
    "name": "Science Park/West End",
    "latitude": 42.366664,
    "longitude": -71.067666,
    "municipality": "Boston",
    "wheelchair_boarding": 1,
    "platform_name": "Lechmere & North",
    "train_line": "Green Line",
    "transfer_stations": ["Science Park/West End"],
    "previous_stop": ["North-station"],
    "next_stop": [""],
    "description": "Science Park/West End",
    "isHub":false,
    "line_short": "place-spmnl"
  },
  {
    "name": "Boylston",
    "latitude": 42.353214,
    "longitude": -71.064545,
    "municipality": "Boston",
    "wheelchair_boarding": 2,
    "platform_name": "Copley & West",
    "train_line": "Green Line",
    "transfer_stations": ["Boylston"],
    "previous_stop": ["Park Street"],
    "next_stop": ["Arlington"],
    "description": "Boylston",
    "isHub":false,
    "line_short": "place-boyls"
  },
  {
    "name": "Dean Road",
    "latitude": 42.337807,
    "longitude": -71.141753,
    "municipality": "Brookline",
    "wheelchair_boarding": 2,
    "platform_name": "Cleveland Circle",
    "train_line": "Green Line",
    "transfer_stations": ["Dean Road"],
    "previous_stop": ["Tappan Street"],
    "next_stop": ["Englewood Avenue"],
    "description": "Dean Road",
    "isHub":false,
    "line_short": "place-denrd"
  },
  {
    "name": "Copley",
    "latitude": 42.350126,
    "longitude": -71.077376,
    "municipality": "Boston",
    "wheelchair_boarding": 1,
    "platform_name": "Kenmore & West, Heath Street",
    "train_line": "Green Line",
    "transfer_stations": ["Copley"],
    "previous_stop": ["Arlington"],
    "next_stop": ["Hynes Convention Center"],
    "description": "Copley",
    "isHub":false,
    "line_short": "place-coecl"
  },
  {
    "name": "Boston University Central",
    "latitude": 42.350013,
    "longitude": -71.106902,
    "municipality": "Boston",
    "wheelchair_boarding": 1,
    "platform_name": "Park Street & North",
    "train_line": "Green Line",
    "transfer_stations": ["Boston University Central"],
    "previous_stop": ["Boston University East"],
    "next_stop": ["Boston University West"],
    "description": "Boston University Central",
    "isHub":false,
    "line_short": "place-bucen"
  },
  {
    "name": "Milton",
    "latitude": 42.270308,
    "longitude": -71.067289,
    "municipality": "Milton",
    "wheelchair_boarding": 1,
    "platform_name": "Ashmont",
    "train_line": "Mattapan Trolley",
    "transfer_stations": ["Milton"],
    "previous_stop": ["Butler"],
    "next_stop": ["Central Avenue"],
    "description": "Milton",
    "isHub":false,
    "line_short": "place-miltt"
  },
  {
    "name": "Saint Paul Street",
    "latitude": 42.343118,
    "longitude": -71.117498,
    "municipality": "Brookline",
    "wheelchair_boarding": 2,
    "platform_name": "Park Street & North",
    "train_line": "Green Line",
    "transfer_stations": ["Saint Paul Street"],
    "previous_stop": ["Hawes Street"],
    "next_stop": ["Coolidge Corner"],
    "description": "Saint Paul Street",
    "isHub":false,
    "line_short": "place-stpul"
  },
  {
    "name": "Symphony",
    "latitude": 42.342687,
    "longitude": -71.085056,
    "municipality": "Boston",
    "wheelchair_boarding": 2,
    "platform_name": "Park Street & North",
    "train_line": "Green Line",
    "transfer_stations": ["Symphony"],
    "previous_stop": ["Prudential"],
    "next_stop": ["Northeastern University"],
    "description": "Symphony",
    "isHub":false,
    "line_short": "place-symcl"
  },
  {
    "name": "Griggs Street",
    "latitude": 42.348919,
    "longitude": -71.134305,
    "municipality": "Boston",
    "wheelchair_boarding": 2,
    "platform_name": "Boston College",
    "train_line": "Green Line",
    "transfer_stations": ["Griggs Street"],
    "previous_stop": ["Harvard Avenue"],
    "next_stop": ["Allston Street"],
    "description": "Griggs Street",
    "isHub":false,
    "line_short": "place-grigg"
  },
  {
    "name": "Chestnut Hill Avenue",
    "latitude": 42.33873,
    "longitude": -71.152526,
    "municipality": "Boston",
    "wheelchair_boarding": 2,
    "platform_name": "Park Street & North",
    "train_line": "Green Line",
    "transfer_stations": ["Chestnut Hill Avenue"],
    "previous_stop": ["Chiswick Road"],
    "next_stop": ["South Street"],
    "description": "Chestnut Hill Avenue",
    "isHub":false,
    "line_short": "place-chill"
  },
  {
    "name": "Beaconsfield",
    "latitude": 42.335625,
    "longitude": -71.140112,
    "municipality": "Brookline",
    "wheelchair_boarding": 1,
    "platform_name": "Park Street & North",
    "train_line": "Green Line",
    "transfer_stations": ["Beaconsfield"],
    "previous_stop": ["Brookline Hills"],
    "next_stop": ["Reservoir"],
    "description": "Beaconsfield",
    "isHub":false,
    "line_short": "place-bcnfd"
  },
  {
    "name": "Kenmore",
    "latitude": 42.348949,
    "longitude": -71.095169,
    "municipality": "Boston",
    "wheelchair_boarding": 1,
    "platform_name": "Park Street & North",
    "train_line": "Green Line",
    "transfer_stations": ["Kenmore"],
    "previous_stop": [""],
    "next_stop": ["Hynes Convention Center"],
    "description": "Kenmore",
    "isHub":false,
    "line_short": "place-kencl"
  },
  {
    "name": "Government Center",
    "latitude": 42.359705,
    "longitude": -71.059215,
    "municipality": "Boston",
    "wheelchair_boarding": 1,
    "platform_name": "Copley & West",
    "train_line": "Blue Line",
    "transfer_stations": ["Government Center"],
    "previous_stop": ["Park Street"],
    "next_stop": ["Haymarket"],
    "description": "Government Center",
    "isHub":false,
    "line_short": "place-gover"
  },
  {
    "name": "Englewood Avenue",
    "latitude": 42.336964,
    "longitude": -71.145867,
    "municipality": "Brookline",
    "wheelchair_boarding": 2,
    "platform_name": "Cleveland Circle",
    "train_line": "Green Line",
    "transfer_stations": ["Englewood Avenue"],
    "previous_stop": ["Englewood Avenue"],
    "next_stop": ["Cleveland Circle"],
    "description": "Englewood Avenue",
    "isHub":false,
    "line_short": "place-engav"
  },
  {
    "name": "Riverside",
    "latitude": 42.337317,
    "longitude": -71.252256,
    "municipality": "Newton",
    "wheelchair_boarding": 1,
    "platform_name": "Park Street & North",
    "train_line": "Green Line - Park Street & North",
    "transfer_stations": ["Riverside"],
    "previous_stop": ["Woodland"],
    "next_stop": [""],
    "description": "Riverside",
    "isHub":false,
    "line_short": "place-river"
  },
  {
    "name": "Mattapan",
    "latitude": 42.267559,
    "longitude": -71.092233,
    "municipality": "Boston",
    "wheelchair_boarding": 1,
    "platform_name": "Ashmont",
    "train_line": "Mattapan Trolley",
    "transfer_stations": ["Mattapan"],
    "previous_stop": ["Capen Street"],
    "next_stop": [""],
    "description": "Mattapan",
    "isHub":false,
    "line_short": "place-matt"
  },
  {
    "name": "Woodland",
    "latitude": 42.332703,
    "longitude": -71.243055,
    "municipality": "Newton",
    "wheelchair_boarding": 1,
    "platform_name": "Park Street & North",
    "train_line": "Green Line",
    "transfer_stations": ["Woodland"],
    "previous_stop": ["Waban"],
    "next_stop": ["Riverside"],
    "description": "Woodland",
    "isHub":false,
    "line_short": "place-woodl"
  },
  {
    "name": "Northeastern University",
    "latitude": 42.339897,
    "longitude": -71.09021,
    "municipality": "Boston",
    "wheelchair_boarding": 1,
    "platform_name": "Heath Street",
    "train_line": "Green Line",
    "transfer_stations": ["Northeastern University"],
    "previous_stop": ["Symphony"],
    "next_stop": ["Museum of Fine Arts"],
    "description": "Northeastern University",
    "isHub":false,
    "line_short": "place-nuniv"
  },
  {
    "name": "Mattapan",
    "latitude": 42.267625,
    "longitude": -71.092389,
    "municipality": "Boston",
    "wheelchair_boarding": 1,
    "platform_name": "Exit Only",
    "train_line": "Mattapan Trolley",
    "transfer_stations": ["Mattapan"],
    "previous_stop": ["Capen Street"],
    "next_stop": [""],
    "description": "Mattapan",
    "isHub":false,
    "line_short": "place-matt"
  },
  {
    "name": "Park Street",
    "latitude": 42.356395,
    "longitude": -71.062424,
    "municipality": "Boston",
    "wheelchair_boarding": 1,
    "platform_name": "Boston College",
    "train_line": "Green/Red Line",
    "transfer_stations": ["Park Street"],
    "previous_stop": ["Government Center", "Charles/MGH"],
    "next_stop": ["Boylston", "Downtown Crossing"],
    "description": "Park Street - Green/Red Line - Unknown",
    "isHub":true,
    "line_short": "place-pktrm"
  },
  {
    "name": "Valley Road",
    "latitude": 42.268347,
    "longitude": -71.081343,
    "municipality": "Milton",
    "wheelchair_boarding": 2,
    "platform_name": "Ashmont",
    "train_line": "Mattapan Trolley",
    "transfer_stations": ["Valley Road"],
    "previous_stop": ["Central Avenue"],
    "next_stop": ["Capen Street"],
    "description": "Valley Road",
    "isHub":false,
    "line_short": "place-valrd"
  },
  {
    "name": "Medford/Tufts",
    "latitude": 42.408306,
    "longitude": -71.11728,
    "municipality": "Medford",
    "wheelchair_boarding": 1,
    "platform_name": "Medford/Tufts",
    "train_line": "Green Line",
    "transfer_stations": ["Medford/Tufts"],
    "previous_stop": ["Chinatown"],
    "next_stop": ["Back Bay"],
    "description": "Medford/Tufts",
    "isHub":false,
    "line_short": "place-mdftf"
  },
  {
    "name": "Waban",
    "latitude": 42.325695,
    "longitude": -71.230476,
    "municipality": "Newton",
    "wheelchair_boarding": 1,
    "platform_name": "Park Street & North",
    "train_line": "Green Line",
    "transfer_stations": ["Waban"],
    "previous_stop": ["Eliot"],
    "next_stop": ["Woodland"],
    "description": "Waban",
    "isHub":false,
    "line_short": "place-waban"
  },
  {
    "name": "Amory Street",
    "latitude": 42.350901,
    "longitude": -71.114318,
    "municipality": "Boston",
    "wheelchair_boarding": 1,
    "platform_name": "Park Street & North",
    "train_line": "Green Line",
    "transfer_stations": ["Amory Street"],
    "previous_stop": ["Babcock Street"],
    "next_stop": ["Boston University West"],
    "description": "Amory Street",
    "isHub":false,
    "line_short": "place-amory"
  },
  {
    "name": "Reservoir",
    "latitude": 42.335163,
    "longitude": -71.148601,
    "municipality": "Brookline",
    "wheelchair_boarding": 1,
    "platform_name": "Riverside",
    "train_line": "Green Line",
    "transfer_stations": ["Reservoir"],
    "previous_stop": ["Chestnut Hill"],
    "next_stop": ["Beaconsfield"],
    "description": "Reservoir",
    "isHub":false,
    "line_short": "place-rsmnl"
  },
  {
    "name": "Blandford Street",
    "latitude": 42.349276,
    "longitude": -71.100213,
    "municipality": "Boston",
    "wheelchair_boarding": 2,
    "platform_name": "Boston College",
    "train_line": "Green Line",
    "transfer_stations": ["Blandford Street"],
    "previous_stop": ["Kenmore"],
    "next_stop": ["Boston University East"],
    "description": "Blandford Street",
    "isHub":false,
    "line_short": "place-bland"
  },
  {
    "name": "South Street",
    "latitude": 42.339581,
    "longitude": -71.157499,
    "municipality": "Boston",
    "wheelchair_boarding": 2,
    "platform_name": "Boston College",
    "train_line": "Green Line",
    "transfer_stations": ["South Street"],
    "previous_stop": ["Chestnut Hill Avenue"],
    "next_stop": ["Boston College"],
    "description": "South Street",
    "isHub":false,
    "line_short": "place-sougr"
  },
  {
    "name": "Englewood Avenue",
    "latitude": 42.337011,
    "longitude": -71.145368,
    "municipality": "Brookline",
    "wheelchair_boarding": 2,
    "platform_name": "Park Street & North",
    "train_line": "Green Line",
    "transfer_stations": ["Englewood Avenue"],
    "previous_stop": ["Englewood Avenue"],
    "next_stop": ["Cleveland Circle"],
    "description": "Englewood Avenue",
    "isHub":false,
    "line_short": "place-engav"
  },
  {
    "name": "Hynes Convention Center",
    "latitude": 42.347888,
    "longitude": -71.087903,
    "municipality": "Boston",
    "wheelchair_boarding": 2,
    "platform_name": "Kenmore & West",
    "train_line": "Green Line",
    "transfer_stations": ["Hynes Convention Center"],
    "previous_stop": ["Copley"],
    "next_stop": ["Kenmore"],
    "description": "Hynes Convention Center",
    "isHub":false,
    "line_short": "place-hymnl"
  },
  {
    "name": "Central Avenue",
    "latitude": 42.270001,
    "longitude": -71.073358,
    "municipality": "Milton",
    "wheelchair_boarding": 1,
    "platform_name": "Ashmont",
    "train_line": "Mattapan Trolley",
    "transfer_stations": ["Central Avenue"],
    "previous_stop": ["Milton"],
    "next_stop": ["Valley Road"],
    "description": "Central Avenue",
    "isHub":false,
    "line_short": "place-cenav"
  },
  {
    "name": "Woodland",
    "latitude": 42.333094,
    "longitude": -71.243659,
    "municipality": "Newton",
    "wheelchair_boarding": 1,
    "platform_name": "Riverside",
    "train_line": "Green Line",
    "transfer_stations": ["Woodland"],
    "previous_stop": ["Waban"],
    "next_stop": ["Riverside"],
    "description": "Woodland",
    "isHub":false,
    "line_short": "place-woodl"
  },
  {
    "name": "Ashmont",
    "latitude": 42.283768,
    "longitude": -71.063191,
    "municipality": "Boston",
    "wheelchair_boarding": 1,
    "platform_name": "Mattapan Trolley",
    "train_line": "Mattapan Trolley ;  Red Line",
    "transfer_stations": ["Ashmont"],
    "previous_stop": [""],
    "next_stop": ["Cedar Grove"],
    "description": "Ashmont",
    "isHub":false,
    "line_short": "place-asmnl"
  },
  {
    "name": "Back of the Hill",
    "latitude": 42.329399,
    "longitude": -71.110931,
    "municipality": "Boston",
    "wheelchair_boarding": 2,
    "platform_name": "Park Street & North",
    "train_line": "Green Line",
    "transfer_stations": ["Back of the Hill"],
    "previous_stop": ["Riverway"],
    "next_stop": ["Heath Street"],
    "description": "Back of the Hill",
    "isHub":false,
    "line_short": "place-bckhl"
  },
  {
    "name": "Boston College",
    "latitude": 42.34024,
    "longitude": -71.166849,
    "municipality": "Boston",
    "wheelchair_boarding": 1,
    "platform_name": "Exit Only",
    "train_line": "Green Line",
    "transfer_stations": ["Boston College"],
    "previous_stop": ["South-station"],
    "next_stop": [""],
    "description": "Boston College",
    "isHub":false,
    "line_short": "place-lake"
  },
  {
    "name": "Babcock Street",
    "latitude": 42.351695,
    "longitude": -71.120257,
    "municipality": "Boston",
    "wheelchair_boarding": 1,
    "platform_name": "Boston College",
    "train_line": "Green Line",
    "transfer_stations": ["Babcock Street"],
    "previous_stop": ["Amory Street"],
    "next_stop": ["Packard's Corner"],
    "description": "Babcock Street",
    "isHub":false,
    "line_short": "place-babck"
  },
  {
    "name": "North Station",
    "latitude": 42.36528,
    "longitude": -71.060205,
    "municipality": "Boston",
    "wheelchair_boarding": 1,
    "platform_name": "Lechmere & North",
    "train_line": "Green/Orange Line",
    "transfer_stations": ["North Station"],
    "previous_stop": ["Haymarket"],
    "next_stop": ["Community College", "Science Park/West End"],
    "isHub":true,
    "description": "North Station - Green/Orange Line - Unknown",
    "line_short": "place-north"
  },
  {
    "name": "Babcock Street",
    "latitude": 42.351538,
    "longitude": -71.119553,
    "municipality": "Boston",
    "wheelchair_boarding": 1,
    "platform_name": "Park Street & North",
    "train_line": "Green Line",
    "transfer_stations": ["Babcock Street"],
    "previous_stop": ["Amory Street"],
    "next_stop": ["Packard's Corner"],
    "description": "Babcock Street",
    "isHub":false,
    "line_short": "place-babck"
  },
  {
    "name": "Brookline Hills",
    "latitude": 42.331413,
    "longitude": -71.127025,
    "municipality": "Brookline",
    "wheelchair_boarding": 1,
    "platform_name": "Riverside",
    "train_line": "Green Line",
    "transfer_stations": ["Brookline Hills"],
    "previous_stop": ["Brookline Village"],
    "next_stop": ["Beaconsfield"],
    "description": "Brookline Hills",
    "isHub":false,
    "line_short": "place-brkhl"
  },
  {
    "name": "Ball Square",
    "latitude": 42.40038,
    "longitude": -71.111331,
    "municipality": "Medford",
    "wheelchair_boarding": 1,
    "platform_name": "Medford/Tufts",
    "train_line": "Green Line",
    "transfer_stations": ["Ball Square"],
    "previous_stop": ["Magoun Square"],
    "next_stop": ["Medford/Tufts"],
    "description": "Ball Square",
    "isHub":false,
    "line_short": "place-balsq"
  },
  {
    "name": "East Somerville",
    "latitude": 42.379624,
    "longitude": -71.086829,
    "municipality": "Somerville",
    "wheelchair_boarding": 1,
    "platform_name": "Copley & West",
    "train_line": "Green Line",
    "transfer_stations": ["East Somerville"],
    "previous_stop": ["Lechmere"],
    "next_stop": ["Gilman Square"],
    "description": "East Somerville",
    "isHub":false,
    "line_short": "place-esomr"
  },
  {
    "name": "Park Street",
    "latitude": 42.356395,
    "longitude": -71.062424,
    "municipality": "Boston",
    "wheelchair_boarding": 1,
    "platform_name": "Heath Street",
    "train_line": "Green Line",
    "transfer_stations": ["Park Street"],
    "previous_stop": ["Government Center", "Charles/MGH"],
    "next_stop": ["Boylston", "Downtown Crossing"],
    "description": "Park Street",
    "isHub":false,
    "line_short": "place-pktrm"
  },
  {
    "name": "Park Street",
    "latitude": 42.356395,
    "longitude": -71.062424,
    "municipality": "Boston",
    "wheelchair_boarding": 1,
    "platform_name": "Cleveland Circle",
    "train_line": "Green Line",
    "transfer_stations": ["Park Street"],
    "previous_stop": ["Government Center", "Charles/MGH"],
    "next_stop": ["Boylston", "Downtown Crossing"],
    "description": "Park Street",
    "isHub":false,
    "line_short": "place-pktrm"
  },
  {
    "name": "Boston University Central",
    "latitude": 42.350148,
    "longitude": -71.107455,
    "municipality": "Boston",
    "wheelchair_boarding": 1,
    "platform_name": "Boston College",
    "train_line": "Green Line",
    "transfer_stations": ["Boston University Central"],
    "previous_stop": ["Boston University East"],
    "next_stop": ["Boston University West"],
    "description": "Boston University Central",
    "isHub":false,
    "line_short": "place-bucen"
  },
  {
    "name": "Valley Road",
    "latitude": 42.268389,
    "longitude": -71.081504,
    "municipality": "Milton",
    "wheelchair_boarding": 2,
    "platform_name": "Mattapan",
    "train_line": "Mattapan Trolley",
    "transfer_stations": ["Valley Road"],
    "previous_stop": ["Central Avenue"],
    "next_stop": ["Capen Street"],
    "description": "Valley Road",
    "isHub":false,
    "line_short": "place-valrd"
  },
  {
    "name": "Medford/Tufts",
    "latitude": 42.40828,
    "longitude": -71.117339,
    "municipality": "Medford",
    "wheelchair_boarding": 1,
    "platform_name": "Copley & West",
    "train_line": "Green Line",
    "transfer_stations": ["Medford/Tufts"],
    "previous_stop": ["Chinatown"],
    "next_stop": ["Back Bay"],
    "description": "Medford/Tufts",
    "isHub":false,
    "line_short": "place-mdftf"
  },
  {
    "name": "Museum of Fine Arts",
    "latitude": 42.338017,
    "longitude": -71.094682,
    "municipality": "Boston",
    "wheelchair_boarding": 1,
    "platform_name": "Park Street & North",
    "train_line": "Green Line",
    "transfer_stations": ["Museum of Fine Arts"],
    "previous_stop": ["Northeastern University"],
    "next_stop": ["Longwood Medical Area"],
    "description": "Museum of Fine Arts",
    "isHub":false,
    "line_short": "place-mfa"
  },
  {
    "name": "Eliot",
    "latitude": 42.319214,
    "longitude": -71.216949,
    "municipality": "Newton",
    "wheelchair_boarding": 1,
    "platform_name": "Riverside",
    "train_line": "Green Line",
    "transfer_stations": ["Eliot"],
    "previous_stop": ["Newton Highlands"],
    "next_stop": ["Waban"],
    "description": "Eliot",
    "isHub":false,
    "line_short": "place-eliot"
  },
  {
    "name": "East Somerville",
    "latitude": 42.379881,
    "longitude": -71.087032,
    "municipality": "Somerville",
    "wheelchair_boarding": 1,
    "platform_name": "Medford/Tufts",
    "train_line": "Green Line",
    "transfer_stations": ["East Somerville"],
    "previous_stop": ["Lechmere"],
    "next_stop": ["Gilman Square"],
    "description": "East Somerville",
    "isHub":false,
    "line_short": "place-esomr"
  },
  {
    "name": "Boston University East",
    "latitude": 42.349659,
    "longitude": -71.103989,
    "municipality": "Boston",
    "wheelchair_boarding": 1,
    "platform_name": "Park Street & North",
    "train_line": "Green Line",
    "transfer_stations": ["Boston University East"],
    "previous_stop": ["Blandford Street"],
    "next_stop": ["Boston University Central"],
    "description": "Boston University East",
    "isHub":false,
    "line_short": "place-buest"
  },
  {
    "name": "Heath Street",
    "latitude": 42.328316,
    "longitude": -71.110252,
    "municipality": "Boston",
    "wheelchair_boarding": 1,
    "platform_name": "Green Line",
    "train_line": "Green Line",
    "transfer_stations": ["Heath Street"],
    "previous_stop": ["Back of the Hill"],
    "next_stop": [""],
    "description": "Heath Street",
    "isHub":false,
    "line_short": "place-hsmnl"
  },
  {
    "name": "Chestnut Hill",
    "latitude": 42.326799,
    "longitude": -71.164146,
    "municipality": "Newton",
    "wheelchair_boarding": 1,
    "platform_name": "Park Street & North",
    "train_line": "Green Line",
    "transfer_stations": ["Chestnut Hill"],
    "previous_stop": ["Reservoir"],
    "next_stop": ["Newton Centre"],
    "description": "Chestnut Hill",
    "isHub":false,
    "line_short": "place-chhil"
  },
  {
    "name": "Prudential",
    "latitude": 42.34557,
    "longitude": -71.081696,
    "municipality": "Boston",
    "wheelchair_boarding": 1,
    "platform_name": "Heath Street",
    "train_line": "Green Line",
    "transfer_stations": ["Prudential"],
    "previous_stop": ["Copley"],
    "next_stop": ["Symphony"],
    "description": "Prudential",
    "isHub":false,
    "line_short": "place-prmnl"
  },
  {
    "name": "Butler",
    "latitude": 42.272477,
    "longitude": -71.062438,
    "municipality": "Boston",
    "wheelchair_boarding": 1,
    "platform_name": "Ashmont",
    "train_line": "Mattapan Trolley",
    "transfer_stations": ["Butler"],
    "previous_stop": ["Cedar Grove"],
    "next_stop": ["Milton"],
    "description": "Butler",
    "isHub":false,
    "line_short": "place-butlr"
  },
  {
    "name": "Riverside",
    "latitude": 42.337348,
    "longitude": -71.252236,
    "municipality": "Newton",
    "wheelchair_boarding": 1,
    "platform_name": "Park Street & North",
    "train_line": "Green Line - Park Street & North",
    "transfer_stations": ["Riverside"],
    "previous_stop": ["Woodland"],
    "next_stop": [""],
    "description": "Riverside",
    "isHub":false,
    "line_short": "place-river"
  },
  {
    "name": "Coolidge Corner",
    "latitude": 42.342274,
    "longitude": -71.120915,
    "municipality": "Brookline",
    "wheelchair_boarding": 1,
    "platform_name": "Cleveland Circle",
    "train_line": "Green Line",
    "transfer_stations": ["Coolidge Corner"],
    "previous_stop": ["Saint Paul Street"],
    "next_stop": ["Summit Avenue"],
    "description": "Coolidge Corner",
    "isHub":false,
    "line_short": "place-cool"
  },
  {
    "name": "Hawes Street",
    "latitude": 42.344758,
    "longitude": -71.111761,
    "municipality": "Brookline",
    "wheelchair_boarding": 2,
    "platform_name": "Cleveland Circle",
    "train_line": "Green Line",
    "transfer_stations": ["Hawes Street"],
    "previous_stop": ["Saint Paul Street"],
    "next_stop": ["Kent Street"],
    "description": "Hawes Street",
    "isHub":false,
    "line_short": "place-hwsst"
  },
  {
    "name": "Brandon Hall",
    "latitude": 42.340053,
    "longitude": -71.128869,
    "municipality": "Brookline",
    "wheelchair_boarding": 2,
    "platform_name": "Cleveland Circle",
    "train_line": "Green Line",
    "transfer_stations": ["Brandon Hall"],
    "previous_stop": ["Summit Avenue"],
    "next_stop": ["Fairbanks Street"],
    "description": "Brandon Hall",
    "isHub":false,
    "line_short": "place-bndhl"
  },
  {
    "name": "Gilman Square",
    "latitude": 42.388043,
    "longitude": -71.096956,
    "municipality": "Somerville",
    "wheelchair_boarding": 1,
    "platform_name": "Medford/Tufts",
    "train_line": "Green Line",
    "transfer_stations": ["Gilman Square"],
    "previous_stop": ["East Somerville"],
    "next_stop": ["Magoun Square"],
    "description": "Gilman Square",
    "isHub":false,
    "line_short": "place-gilmn"
  },
  {
    "name": "Blandford Street",
    "latitude": 42.349165,
    "longitude": -71.099821,
    "municipality": "Boston",
    "wheelchair_boarding": 2,
    "platform_name": "Park Street & North",
    "train_line": "Green Line",
    "transfer_stations": ["Blandford Street"],
    "previous_stop": ["Kenmore"],
    "next_stop": ["Boston University East"],
    "description": "Blandford Street",
    "isHub":false,
    "line_short": "place-bland"
  },
  {
    "name": "Boston University East",
    "latitude": 42.349811,
    "longitude": -71.104657,
    "municipality": "Boston",
    "wheelchair_boarding": 1,
    "platform_name": "Boston College",
    "train_line": "Green Line",
    "transfer_stations": ["Boston University East"],
    "previous_stop": ["Blandford Street"],
    "next_stop": ["Boston University Central"],
    "description": "Boston University East",
    "isHub":false,
    "line_short": "place-buest"
  },
  {
    "name": "Prudential",
    "latitude": 42.34557,
    "longitude": -71.081696,
    "municipality": "Boston",
    "wheelchair_boarding": 1,
    "platform_name": "Park Street & North",
    "train_line": "Green Line",
    "transfer_stations": ["Prudential"],
    "previous_stop": ["Copley"],
    "next_stop": ["Symphony"],
    "description": "Prudential",
    "isHub":false,
    "line_short": "place-prmnl"
  },
  {
    "name": "Cedar Grove",
    "latitude": 42.279693,
    "longitude": -71.060381,
    "municipality": "Boston",
    "wheelchair_boarding": 1,
    "platform_name": "Ashmont",
    "train_line": "Mattapan Trolley",
    "transfer_stations": ["Cedar Grove"],
    "previous_stop": ["Ashmont"],
    "next_stop": ["Butler"],
    "description": "Cedar Grove",
    "isHub":false,
    "line_short": "place-cedgr"
  },
  {
    "name": "Ball Square",
    "latitude": 42.400103,
    "longitude": -71.111207,
    "municipality": "Medford",
    "wheelchair_boarding": 1,
    "platform_name": "Copley & West",
    "train_line": "Green Line",
    "transfer_stations": ["Ball Square"],
    "previous_stop": ["Magoun Square"],
    "next_stop": ["Medford/Tufts"],
    "description": "Ball Square",
    "isHub":false,
    "line_short": "place-balsq"
  },
  {
    "name": "Mission Park",
    "latitude": 42.333092,
    "longitude": -71.10968,
    "municipality": "Boston",
    "wheelchair_boarding": 2,
    "platform_name": "Park Street & North",
    "train_line": "Green Line",
    "transfer_stations": ["Mission Park"],
    "previous_stop": ["Fenwood Road"],
    "next_stop": ["Riverway"],
    "description": "Mission Park",
    "isHub":false,
    "line_short": "place-mispk"
  },
  {
    "name": "Arlington",
    "latitude": 42.351902,
    "longitude": -71.070893,
    "municipality": "Boston",
    "wheelchair_boarding": 1,
    "platform_name": "Park Street & North",
    "train_line": "Green Line",
    "transfer_stations": ["Arlington"],
    "previous_stop": ["Boylston"],
    "next_stop": ["Copley"],
    "description": "Arlington",
    "isHub":false,
    "line_short": "place-armnl"
  },
  {
    "name": "Museum of Fine Arts",
    "latitude": 42.337875,
    "longitude": -71.09524,
    "municipality": "Boston",
    "wheelchair_boarding": 1,
    "platform_name": "Heath Street",
    "train_line": "Green Line",
    "transfer_stations": ["Museum of Fine Arts"],
    "previous_stop": ["Northeastern University"],
    "next_stop": ["Longwood Medical Area"],
    "description": "Museum of Fine Arts",
    "isHub":false,
    "line_short": "place-mfa"
  },
  {
    "name": "Kenmore",
    "latitude": 42.348949,
    "longitude": -71.095169,
    "municipality": "Boston",
    "wheelchair_boarding": 1,
    "platform_name": "Cleveland Circle, Riverside",
    "train_line": "Green Line",
    "transfer_stations": ["Kenmore"],
    "previous_stop": [""],
    "next_stop": ["Hynes Convention Center"],
    "description": "Kenmore",
    "isHub":false,
    "line_short": "place-kencl"
  },
  {
    "name": "Haymarket",
    "latitude": 42.363021,
    "longitude": -71.05829,
    "municipality": "Boston",
    "wheelchair_boarding": 1,
    "platform_name": "Copley & West",
    "train_line": "Green Line",
    "transfer_stations": ["Haymarket"],
    "previous_stop": ["North-station"],
    "next_stop": ["State"],
    "description": "Haymarket",
    "isHub":false,
    "line_short": "place-haecl"
  },
  {
    "name": "Fenway",
    "latitude": 42.345029,
    "longitude": -71.104968,
    "municipality": "Boston",
    "wheelchair_boarding": 1,
    "platform_name": "Riverside",
    "train_line": "Green Line",
    "transfer_stations": ["Fenway"],
    "previous_stop": ["Kenmore"],
    "next_stop": ["Longwood"],
    "description": "Fenway",
    "isHub":false,
    "line_short": "place-fenwy"
  },
  {
    "name": "Boston College",
    "latitude": 42.340149,
    "longitude": -71.167029,
    "municipality": "Boston",
    "wheelchair_boarding": 1,
    "platform_name": "Park Street & North",
    "train_line": "Green Line",
    "transfer_stations": ["Boston College"],
    "previous_stop": ["South-station"],
    "next_stop": [""],
    "description": "Boston College",
    "isHub":false,
    "line_short": "place-lake"
  },
  {
    "name": "Warren Street",
    "latitude": 42.348285,
    "longitude": -71.140436,
    "municipality": "Boston",
    "wheelchair_boarding": 2,
    "platform_name": "Park Street & North",
    "train_line": "Green Line",
    "transfer_stations": ["Warren Street"],
    "previous_stop": ["Allston Street"],
    "next_stop": ["Washington Street"],
    "description": "Warren Street",
    "isHub":false,
    "line_short": "place-wrnst"
  },
  {
    "name": "Allston Street",
    "latitude": 42.348546,
    "longitude": -71.137362,
    "municipality": "Boston",
    "wheelchair_boarding": 2,
    "platform_name": "Boston College",
    "train_line": "Green Line",
    "transfer_stations": ["Allston Street"],
    "previous_stop": ["Griggs Street"],
    "next_stop": ["Warren Street"],
    "description": "Allston Street",
    "isHub":false,
    "line_short": "place-alsgr"
  },
  {
    "name": "Allston Street",
    "latitude": 42.348649,
    "longitude": -71.137881,
    "municipality": "Boston",
    "wheelchair_boarding": 2,
    "platform_name": "Park Street & North",
    "train_line": "Green Line",
    "transfer_stations": ["Allston Street"],
    "previous_stop": ["Griggs Street"],
    "next_stop": ["Warren Street"],
    "description": "Allston Street",
    "isHub":false,
    "line_short": "place-alsgr"
  },
  {
    "name": "Newton Highlands",
    "latitude": 42.322738,
    "longitude": -71.205082,
    "municipality": "Newton",
    "wheelchair_boarding": 1,
    "platform_name": "Park Street & North",
    "train_line": "Green Line",
    "transfer_stations": ["Newton Highlands"],
    "previous_stop": ["Newton Centre"],
    "next_stop": ["Eliot"],
    "description": "Newton Highlands",
    "isHub":false,
    "line_short": "place-newtn"
  },
  {
    "name": "Symphony",
    "latitude": 42.342687,
    "longitude": -71.085056,
    "municipality": "Boston",
    "wheelchair_boarding": 2,
    "platform_name": "Heath Street",
    "train_line": "Green Line",
    "transfer_stations": ["Symphony"],
    "previous_stop": ["Prudential"],
    "next_stop": ["Northeastern University"],
    "description": "Symphony",
    "isHub":false,
    "line_short": "place-symcl"
  },
  {
    "name": "Kenmore",
    "latitude": 42.348949,
    "longitude": -71.095169,
    "municipality": "Boston",
    "wheelchair_boarding": 1,
    "platform_name": "Park Street & North",
    "train_line": "Green Line",
    "transfer_stations": ["Kenmore"],
    "previous_stop": [""],
    "next_stop": ["Hynes Convention Center"],
    "description": "Kenmore",
    "isHub":false,
    "line_short": "place-kencl"
  },
  {
    "name": "Brigham Circle",
    "latitude": 42.334846,
    "longitude": -71.103017,
    "municipality": "Boston",
    "wheelchair_boarding": 1,
    "platform_name": "Park Street & North",
    "train_line": "Green Line",
    "transfer_stations": ["Brigham Circle"],
    "previous_stop": ["Longwood Medical Area"],
    "next_stop": ["Fenwood Road"],
    "description": "Brigham Circle",
    "isHub":false,
    "line_short": "place-brmnl"
  },
  {
    "name": "Longwood",
    "latitude": 42.341808,
    "longitude": -71.109777,
    "municipality": "Brookline",
    "wheelchair_boarding": 1,
    "platform_name": "Park Street & North",
    "train_line": "Green Line",
    "transfer_stations": ["Longwood"],
    "previous_stop": ["Fenway"],
    "next_stop": ["Brookline Village"],
    "description": "Longwood",
    "isHub":false,
    "line_short": "place-longw"
  },
  {
    "name": "Haymarket",
    "latitude": 42.363021,
    "longitude": -71.05829,
    "municipality": "Boston",
    "wheelchair_boarding": 1,
    "platform_name": "North Station & North",
    "train_line": "Green Line",
    "transfer_stations": ["Haymarket"],
    "previous_stop": ["North-station"],
    "next_stop": ["State"],
    "description": "Haymarket",
    "isHub":false,
    "line_short": "place-haecl"
  },
  {
    "name": "Back of the Hill",
    "latitude": 42.329369,
    "longitude": -71.111046,
    "municipality": "Boston",
    "wheelchair_boarding": 2,
    "platform_name": "Heath Street",
    "train_line": "Green Line",
    "transfer_stations": ["Back of the Hill"],
    "previous_stop": ["Riverway"],
    "next_stop": ["Heath Street"],
    "description": "Back of the Hill",
    "isHub":false,
    "line_short": "place-bckhl"
  },
  {
    "name": "Gilman Square",
    "latitude": 42.387831,
    "longitude": -71.096629,
    "municipality": "Somerville",
    "wheelchair_boarding": 1,
    "platform_name": "Copley & West",
    "train_line": "Green Line",
    "transfer_stations": ["Gilman Square"],
    "previous_stop": ["East Somerville"],
    "next_stop": ["Magoun Square"],
    "description": "Gilman Square",
    "isHub":false,
    "line_short": "place-gilmn"
  },
  {
    "name": "Mission Park",
    "latitude": 42.333279,
    "longitude": -71.109276,
    "municipality": "Boston",
    "wheelchair_boarding": 2,
    "platform_name": "Heath Street",
    "train_line": "Green Line",
    "transfer_stations": ["Mission Park"],
    "previous_stop": ["Fenwood Road"],
    "next_stop": ["Riverway"],
    "description": "Mission Park",
    "isHub":false,
    "line_short": "place-mispk"
  },
  {
    "name": "Brookline Hills",
    "latitude": 42.331293,
    "longitude": -71.126406,
    "municipality": "Brookline",
    "wheelchair_boarding": 1,
    "platform_name": "Park Street & North",
    "train_line": "Green Line",
    "transfer_stations": ["Brookline Hills"],
    "previous_stop": ["Brookline Village"],
    "next_stop": ["Beaconsfield"],
    "description": "Brookline Hills",
    "isHub":false,
    "line_short": "place-brkhl"
  },
  {
    "name": "Harvard Avenue",
    "latitude": 42.350263,
    "longitude": -71.131298,
    "municipality": "Boston",
    "wheelchair_boarding": 1,
    "platform_name": "Park Street & North",
    "train_line": "Green Line",
    "transfer_stations": ["Harvard Avenue"],
    "previous_stop": ["Packard's Corner"],
    "next_stop": ["Griggs Street"],
    "description": "Harvard Avenue",
    "isHub":false,
    "line_short": "place-harvd"
  },
  {
    "name": "Northeastern University",
    "latitude": 42.340222,
    "longitude": -71.0892,
    "municipality": "Boston",
    "wheelchair_boarding": 1,
    "platform_name": "Park Street & North",
    "train_line": "Green Line",
    "transfer_stations": ["Northeastern University"],
    "previous_stop": ["Symphony"],
    "next_stop": ["Museum of Fine Arts"],
    "description": "Northeastern University",
    "isHub":false,
    "line_short": "place-nuniv"
  },
  {
    "name": "Newton Highlands",
    "latitude": 42.32253,
    "longitude": -71.205421,
    "municipality": "Newton",
    "wheelchair_boarding": 1,
    "platform_name": "Riverside",
    "train_line": "Green Line",
    "transfer_stations": ["Newton Highlands"],
    "previous_stop": ["Newton Centre"],
    "next_stop": ["Eliot"],
    "description": "Newton Highlands",
    "isHub":false,
    "line_short": "place-newtn"
  },
  {
    "name": "Cleveland Circle",
    "latitude": 42.336252,
    "longitude": -71.148774,
    "municipality": "Boston",
    "wheelchair_boarding": 1,
    "platform_name": "Park Street & North",
    "train_line": "Green Line",
    "transfer_stations": ["Cleveland Circle"],
    "previous_stop": ["Englewood Avenue"],
    "next_stop": [""],
    "description": "Cleveland Circle",
    "isHub":false,
    "line_short": "place-clmnl"
  },
  {
    "name": "Dean Road",
    "latitude": 42.337628,
    "longitude": -71.142309,
    "municipality": "Brookline",
    "wheelchair_boarding": 2,
    "platform_name": "Park Street & North",
    "train_line": "Green Line",
    "transfer_stations": ["Dean Road"],
    "previous_stop": ["Tappan Street"],
    "next_stop": ["Englewood Avenue"],
    "description": "Dean Road",
    "isHub":false,
    "line_short": "place-denrd"
  },
  {
    "name": "Brookline Village",
    "latitude": 42.33257,
    "longitude": -71.117041,
    "municipality": "Brookline",
    "wheelchair_boarding": 1,
    "platform_name": "Riverside",
    "train_line": "Green Line",
    "transfer_stations": ["Brookline Village"],
    "previous_stop": ["Longwood"],
    "next_stop": ["Brookline Hills"],
    "description": "Brookline Village",
    "isHub":false,
    "line_short": "place-bvmnl"
  },
  {
    "name": "Kent Street",
    "latitude": 42.343927,
    "longitude": -71.114569,
    "municipality": "Brookline",
    "wheelchair_boarding": 2,
    "platform_name": "Park Street & North",
    "train_line": "Green Line",
    "transfer_stations": ["Kent Street"],
    "previous_stop": ["Hawes Street"],
    "next_stop": ["Saint Paul Street"],
    "description": "Kent Street",
    "isHub":false,
    "line_short": "place-kntst"
  },
  {
    "name": "Magoun Square",
    "latitude": 42.39405,
    "longitude": -71.106688,
    "municipality": "Somerville",
    "wheelchair_boarding": 1,
    "platform_name": "Copley & West",
    "train_line": "Green Line",
    "transfer_stations": ["Magoun Square"],
    "previous_stop": ["Gilman Square"],
    "next_stop": ["Ball Square"],
    "description": "Magoun Square",
    "isHub":false,
    "line_short": "place-mgngl"
  },
  {
    "name": "Saint Mary's Street",
    "latitude": 42.345884,
    "longitude": -71.107697,
    "municipality": "Brookline",
    "wheelchair_boarding": 1,
    "platform_name": "Cleveland Circle",
    "train_line": "Green Line",
    "transfer_stations": ["Saint Mary's Street"],
    "previous_stop": ["Hawes Street"],
    "next_stop": ["Kenmore"],
    "description": "Saint Mary's Street",
    "isHub":false,
    "line_short": "place-smary"
  },
  {
    "name": "Waban",
    "latitude": 42.325967,
    "longitude": -71.230714,
    "municipality": "Newton",
    "wheelchair_boarding": 1,
    "platform_name": "Riverside",
    "train_line": "Green Line",
    "transfer_stations": ["Waban"],
    "previous_stop": ["Eliot"],
    "next_stop": ["Woodland"],
    "description": "Waban",
    "isHub":false,
    "line_short": "place-waban"
  },
  {
    "name": "Chiswick Road",
    "latitude": 42.340808,
    "longitude": -71.150633,
    "municipality": "Boston",
    "wheelchair_boarding": 2,
    "platform_name": "Park Street & North",
    "train_line": "Green Line",
    "transfer_stations": ["Chiswick Road"],
    "previous_stop": ["Sutherland Road"],
    "next_stop": ["Chestnut Hill Avenue"],
    "description": "Chiswick Road",
    "isHub":false,
    "line_short": "place-chswk"
  },
  {
    "name": "Coolidge Corner",
    "latitude": 42.342028,
    "longitude": -71.121685,
    "municipality": "Brookline",
    "wheelchair_boarding": 1,
    "platform_name": "Park Street & North",
    "train_line": "Green Line",
    "transfer_stations": ["Coolidge Corner"],
    "previous_stop": ["Saint Paul Street"],
    "next_stop": ["Summit Avenue"],
    "description": "Coolidge Corner",
    "isHub":false,
    "line_short": "place-cool"
  },
  {
    "name": "Sutherland Road",
    "latitude": 42.341589,
    "longitude": -71.146089,
    "municipality": "Boston",
    "wheelchair_boarding": 2,
    "platform_name": "Park Street & North",
    "train_line": "Green Line",
    "transfer_stations": ["Sutherland Road"],
    "previous_stop": ["Washington Street"],
    "next_stop": ["Chiswick Road"],
    "description": "Sutherland Road",
    "isHub":false,
    "line_short": "place-sthld"
  },
  {
    "name": "Harvard Avenue",
    "latitude": 42.350602,
    "longitude": -71.130727,
    "municipality": "Boston",
    "wheelchair_boarding": 1,
    "platform_name": "Boston College",
    "train_line": "Green Line",
    "transfer_stations": ["Harvard Avenue"],
    "previous_stop": ["Packard's Corner"],
    "next_stop": ["Griggs Street"],
    "description": "Harvard Avenue",
    "isHub":false,
    "line_short": "place-harvd"
  },
  {
    "name": "Longwood",
    "latitude": 42.341571,
    "longitude": -71.110147,
    "municipality": "Brookline",
    "wheelchair_boarding": 1,
    "platform_name": "Riverside",
    "train_line": "Green Line",
    "transfer_stations": ["Longwood"],
    "previous_stop": ["Fenway"],
    "next_stop": ["Brookline Village"],
    "description": "Longwood",
    "isHub":false,
    "line_short": "place-longw"
  },
  {
    "name": "Union Square",
    "latitude": 42.377024,
    "longitude": -71.093964,
    "municipality": "Somerville",
    "wheelchair_boarding": 1,
    "platform_name": "Copley & West",
    "train_line": "Green Line - Copley & West",
    "transfer_stations": ["Union Square"],
    "previous_stop": ["Lechmere"],
    "next_stop": [""],
    "description": "Union Square",
    "isHub":false,
    "line_short": "place-unsqu"
  },
  {
    "name": "Magoun Square",
    "latitude": 42.394357,
    "longitude": -71.106824,
    "municipality": "Somerville",
    "wheelchair_boarding": 1,
    "platform_name": "Medford/Tufts",
    "train_line": "Green Line",
    "transfer_stations": ["Magoun Square"],
    "previous_stop": ["Gilman Square"],
    "next_stop": ["Ball Square"],
    "description": "Magoun Square",
    "isHub":false,
    "line_short": "place-mgngl"
  },
  {
    "name": "Airport",
    "latitude": 42.374262,
    "longitude": -71.030395,
    "municipality": "Boston",
    "wheelchair_boarding": 1,
    "platform_name": null,
    "train_line": "Blue Line",
    "transfer_stations": [],
    "previous_stop": ["Maverick"],
    "next_stop": ["Wood Island"],
    "description": "Airport - Blue Line - Boston",
    "isHub":false,
    "line_short": "place-aport"
  },
  {
    "name": "Aquarium",
    "latitude": 42.359784,
    "longitude": -71.051652,
    "municipality": "Boston",
    "wheelchair_boarding": 1,
    "platform_name": null,
    "train_line": "Blue Line",
    "transfer_stations": [],
    "previous_stop": ["State"],
    "next_stop": ["Maverick"],
    "description": "Aquarium - Blue Line - Boston",
    "isHub":false,
    "line_short": "place-aqucl"
  },
  {
    "name": "Beachmont",
    "latitude": 42.397542,
    "longitude": -70.992319,
    "municipality": "Revere",
    "wheelchair_boarding": 1,
    "platform_name": null,
    "train_line": "Blue Line",
    "transfer_stations": [],
    "previous_stop": ["Suffolk Downs"],
    "next_stop": ["Revere Beach"],
    "description": "Beachmont - Blue Line - Revere",
    "isHub":false,
    "line_short": "place-bmmnl"
  },
  {
    "name": "Bowdoin",
    "latitude": 42.361365,
    "longitude": -71.062037,
    "municipality": "Boston",
    "wheelchair_boarding": 2,
    "platform_name": null,
    "train_line": "Blue Line",
    "transfer_stations": [],
    "previous_stop": [""],
    "next_stop": ["Bowdoin"],
    "description": "Bowdoin - Blue Line - Boston",
    "isHub":false,
    "line_short": "place-bomnl"
  },
  {
    "name": "Maverick",
    "latitude": 42.369119,
    "longitude": -71.03953,
    "municipality": "Boston",
    "wheelchair_boarding": 1,
    "platform_name": null,
    "train_line": "Blue Line",
    "transfer_stations": [],
    "previous_stop": ["Aquarium"],
    "next_stop": ["Airport"],
    "description": "Maverick - Blue Line - Boston",
    "isHub":false,
    "line_short": "place-mvbcl"
  },
  {
    "name": "Orient Heights",
    "latitude": 42.386867,
    "longitude": -71.004736,
    "municipality": "Boston",
    "wheelchair_boarding": 1,
    "platform_name": null,
    "train_line": "Blue Line",
    "transfer_stations": [],
    "previous_stop": ["Wood Island"],
    "next_stop": ["Suffolk Downs"],
    "description": "Orient Heights - Blue Line - Boston",
    "isHub":false,
    "line_short": "place-orhte"
  },
  {
    "name": "Revere Beach",
    "latitude": 42.407843,
    "longitude": -70.992533,
    "municipality": "Revere",
    "wheelchair_boarding": 1,
    "platform_name": null,
    "train_line": "Blue Line",
    "transfer_stations": [],
    "previous_stop": ["Beachmont"],
    "next_stop": ["Wonderland"],
    "description": "Revere Beach - Blue Line - Revere",
    "isHub":false,
    "line_short": "place-rbmnl"
  },
  {
    "name": "State",
    "latitude": 42.358978,
    "longitude": -71.057598,
    "municipality": "Boston",
    "wheelchair_boarding": 1,
    "platform_name": null,
    "train_line": "Blue Line",
    "transfer_stations": [],
    "previous_stop": ["Government Center"],
    "next_stop": ["Aquarium"],
    "description": "State - Blue Line - Boston",
    "isHub":false,
    "line_short": "place-state"
  },
  {
    "name": "Suffolk Downs",
    "latitude": 42.390501,
    "longitude": -70.997123,
    "municipality": "Boston",
    "wheelchair_boarding": 1,
    "platform_name": null,
    "train_line": "Blue Line",
    "transfer_stations": [],
    "previous_stop": ["Orient Heights"],
    "next_stop": ["Beachmont"],
    "description": "Suffolk Downs - Blue Line - Boston",
    "isHub":false,
    "line_short": "place-sdmnl"
  },
  {
    "name": "Wonderland",
    "latitude": 42.41342,
    "longitude": -70.991648,
    "municipality": "Revere",
    "wheelchair_boarding": 1,
    "platform_name": null,
    "train_line": "Blue Line",
    "transfer_stations": [],
    "previous_stop": ["Revere Beach"],
    "next_stop": [""],
    "description": "Wonderland - Blue Line - Revere",
    "isHub":false,
    "line_short": "place-wondl"
  },
  {
    "name": "Wood Island",
    "latitude": 42.37964,
    "longitude": -71.022865,
    "municipality": "Boston",
    "wheelchair_boarding": 1,
    "platform_name": null,
    "train_line": "Blue Line",
    "transfer_stations": [],
    "previous_stop": ["Airport"],
    "next_stop": ["Orient Heights"],
    "description": "Wood Island - Blue Line - Boston",
    "isHub":false,
    "line_short": "place-wimnl"
  },
  {
    "name": "Boston University West",
    "latitude": null,
    "longitude": null,
    "municipality": null,
    "wheelchair_boarding": 0,
    "platform_name": "",
    "train_line": "Green Line",
    "transfer_stations": [],
    "previous_stop": ["Boston University Central"],
    "next_stop": ["Saint Paul Street"],
    "description": "Boston University West - Green Line - Unknown",
    "isHub":false,
    "line_short": "place-buwst"
  },
  {
    "name": "Fairbanks Street",
    "latitude": 42.339725,
    "longitude": -71.131073,
    "municipality": "Brookline",
    "wheelchair_boarding": 2,
    "platform_name": null,
    "train_line": "Green Line",
    "transfer_stations": [],
    "previous_stop": ["Brandon Hall"],
    "next_stop": ["Washington Square"],
    "description": "Fairbanks Street - Green Line - Brookline",
    "isHub":false,
    "line_short": "place-fbkst"
  },
  {
    "name": "Fenwood Road",
    "latitude": 42.333706,
    "longitude": -71.105728,
    "municipality": "Boston",
    "wheelchair_boarding": 2,
    "platform_name": null,
    "train_line": "Green Line",
    "transfer_stations": [],
    "previous_stop": ["Brigham Circle"],
    "next_stop": ["Mission Park"],
    "description": "Fenwood Road - Green Line - Boston",
    "isHub":false,
    "line_short": "place-fenwd"
  },
  {
    "name": "Lechmere",
    "latitude": 42.371572,
    "longitude": -71.076584,
    "municipality": "Cambridge",
    "wheelchair_boarding": 1,
    "platform_name": null,
    "train_line": "Green Line",
    "transfer_stations": [],
    "previous_stop": ["Science Park/West End"],
    "next_stop": ["East Somerville"],
    "description": "Lechmere - Green Line - Cambridge",
    "isHub":false,
    "line_short": "place-lech"
  },
  {
    "name": "Longwood Medical Area",
    "latitude": 42.33596,
    "longitude": -71.100052,
    "municipality": "Boston",
    "wheelchair_boarding": 1,
    "platform_name": null,
    "train_line": "Green Line",
    "transfer_stations": [],
    "previous_stop": ["Fenway"],
    "next_stop": ["Brookline Village"],
    "description": "Longwood Medical Area - Green Line - Boston",
    "isHub":false,
    "line_short": "place-lngmd"
  },
  {
    "name": "Newton Centre",
    "latitude": 42.329443,
    "longitude": -71.192414,
    "municipality": "Newton",
    "wheelchair_boarding": 1,
    "platform_name": null,
    "train_line": "Green Line",
    "transfer_stations": [],
    "previous_stop": ["Chestnut Hill"],
    "next_stop": ["Newton Highlands"],
    "description": "Newton Centre - Green Line - Newton",
    "isHub":false,
    "line_short": "place-newto"
  },
  {
    "name": "North-station",
    "latitude": 42.365577,
    "longitude": -71.06129,
    "municipality": "Boston",
    "wheelchair_boarding": 1,
    "platform_name": null,
    "train_line": "Green Line",
    "transfer_stations": [],
    "previous_stop": ["Community College", "Science Park/West End"],
    "next_stop": ["Haymarket"],
    "description": "North-station - Green Line - Boston",
    "isHub":false,
    "line_short": "place-north"
  },
  {
    "name": "Packard's Corner",
    "latitude": 42.351967,
    "longitude": -71.125031,
    "municipality": "Boston",
    "wheelchair_boarding": 2,
    "platform_name": null,
    "train_line": "Green Line",
    "transfer_stations": [],
    "previous_stop": ["Babcock Street"],
    "next_stop": ["Harvard Avenue"],
    "description": "Packard's Corner - Green Line - Boston",
    "isHub":false,
    "line_short": "place-brico"
  },
  {
    "name": "Riverway",
    "latitude": 42.331684,
    "longitude": -71.111931,
    "municipality": "Boston",
    "wheelchair_boarding": 2,
    "platform_name": null,
    "train_line": "Green Line",
    "transfer_stations": [],
    "previous_stop": ["Mission Park"],
    "next_stop": ["Back of the Hill"],
    "description": "Riverway - Green Line - Boston",
    "isHub":false,
    "line_short": "place-rvrwy"
  },
  {
    "name": "Summit Avenue",
    "latitude": 42.34111,
    "longitude": -71.12561,
    "municipality": "Brookline",
    "wheelchair_boarding": 2,
    "platform_name": null,
    "train_line": "Green Line",
    "transfer_stations": [],
    "previous_stop": ["Coolidge Corner"],
    "next_stop": ["Brandon Hall"],
    "description": "Summit Avenue - Green Line - Brookline",
    "isHub":false,
    "line_short": "place-sumav"
  },
  {
    "name": "Tappan Street",
    "latitude": 42.338459,
    "longitude": -71.138702,
    "municipality": "Brookline",
    "wheelchair_boarding": 2,
    "platform_name": null,
    "train_line": "Green Line",
    "transfer_stations": [],
    "previous_stop": ["Washington Street"],
    "next_stop": ["Dean Road"],
    "description": "Tappan Street - Green Line - Brookline",
    "isHub":false,
    "line_short": "place-tapst"
  },
  {
    "name": "Washington Square",
    "latitude": 42.339394,
    "longitude": -71.13533,
    "municipality": "Brookline",
    "wheelchair_boarding": 1,
    "platform_name": null,
    "train_line": "Green Line",
    "transfer_stations": [],
    "previous_stop": ["Warren Street"],
    "next_stop": ["Sutherland Road"],
    "description": "Washington Square - Green Line - Brookline",
    "isHub":false,
    "line_short": "place-bcnwa"
  },
  {
    "name": "Washington Street",
    "latitude": 42.343864,
    "longitude": -71.142853,
    "municipality": "Boston",
    "wheelchair_boarding": 1,
    "platform_name": null,
    "train_line": "Green Line",
    "transfer_stations": [],
    "previous_stop": ["Warren Street"],
    "next_stop": ["Sutherland Road"],
    "description": "Washington Street - Green Line - Boston",
    "isHub":false,
    "line_short": "place-wascm"
  },
  {
    "name": "Capen Street",
    "latitude": 42.267563,
    "longitude": -71.087338,
    "municipality": "Milton",
    "wheelchair_boarding": 1,
    "platform_name": null,
    "train_line": "Mattapan Trolley",
    "transfer_stations": [],
    "previous_stop": ["Valley Road"],
    "next_stop": ["Mattapan"],
    "description": "Capen Street - Mattapan Trolley - Milton",
    "isHub":false,
    "line_short": "place-capst"
  },
  {
    "name": "Assembly",
    "latitude": 42.392811,
    "longitude": -71.077257,
    "municipality": "Somerville",
    "wheelchair_boarding": 1,
    "platform_name": null,
    "train_line": "Orange Line",
    "transfer_stations": [],
    "previous_stop": ["Wellington"],
    "next_stop": ["Sullivan Square"],
    "description": "Assembly - Orange Line - Somerville",
    "isHub":false,
    "line_short": "place-astao"
  },
  {
    "name": "Back Bay",
    "latitude": 42.34735,
    "longitude": -71.075727,
    "municipality": "Boston",
    "wheelchair_boarding": 1,
    "platform_name": null,
    "train_line": "Orange Line",
    "transfer_stations": [],
    "previous_stop": ["Tufts Medical Center"],
    "next_stop": ["Massachusetts Avenue"],
    "description": "Back Bay - Orange Line - Boston",
    "isHub":false,
    "line_short": "place-bbsta"
  },
  {
    "name": "Chinatown",
    "latitude": 42.352547,
    "longitude": -71.062752,
    "municipality": "Boston",
    "wheelchair_boarding": 1,
    "platform_name": null,
    "train_line": "Orange Line",
    "transfer_stations": [],
    "previous_stop": ["Downtown Crossing"],
    "next_stop": ["Tufts Medical Center"],
    "description": "Chinatown - Orange Line - Boston",
    "isHub":false,
    "line_short": "place-chncl"
  },
  {
    "name": "Community College",
    "latitude": 42.373622,
    "longitude": -71.069533,
    "municipality": "Boston",
    "wheelchair_boarding": 1,
    "platform_name": null,
    "train_line": "Orange Line",
    "transfer_stations": [],
    "previous_stop": ["Sullivan Square"],
    "next_stop": ["North-station"],
    "description": "Community College - Orange Line - Boston",
    "isHub":false,
    "line_short": "place-ccmnl"
  },
  {
    "name": "Downtown Crossing",
    "latitude": 42.355518,
    "longitude": -71.060225,
    "municipality": "Boston",
    "wheelchair_boarding": 1,
    "platform_name": null,
    "train_line": "Orange Line",
    "transfer_stations": [],
    "previous_stop": ["Park Street"],
    "next_stop": ["South-station"],
    "description": "Downtown Crossing - Orange Line - Boston",
    "isHub":false,
    "line_short": "place-dwnxg"
  },
  {
    "name": "Forest Hills",
    "latitude": 42.300713,
    "longitude": -71.113943,
    "municipality": "Boston",
    "wheelchair_boarding": 1,
    "platform_name": null,
    "train_line": "Orange Line",
    "transfer_stations": [],
    "previous_stop": ["Green Street"],
    "next_stop": [""],
    "description": "Forest Hills - Orange Line - Boston",
    "isHub":false,
    "line_short": "place-forhl"
  },
  {
    "name": "Green Street",
    "latitude": 42.310525,
    "longitude": -71.107414,
    "municipality": "Boston",
    "wheelchair_boarding": 1,
    "platform_name": null,
    "train_line": "Orange Line",
    "transfer_stations": [],
    "previous_stop": ["Stony Brook"],
    "next_stop": ["Forest Hills"],
    "description": "Green Street - Orange Line - Boston",
    "isHub":false,
    "line_short": "place-grnst"
  },
  {
    "name": "Jackson Square",
    "latitude": 42.323132,
    "longitude": -71.099592,
    "municipality": "Boston",
    "wheelchair_boarding": 1,
    "platform_name": null,
    "train_line": "Orange Line",
    "transfer_stations": [],
    "previous_stop": ["Roxbury Crossing"],
    "next_stop": ["Stony Brook"],
    "description": "Jackson Square - Orange Line - Boston",
    "isHub":false,
    "line_short": "place-jaksn"
  },
  {
    "name": "Malden Center",
    "latitude": 42.426632,
    "longitude": -71.07411,
    "municipality": "Malden",
    "wheelchair_boarding": 1,
    "platform_name": null,
    "train_line": "Orange Line",
    "transfer_stations": [],
    "previous_stop": ["Oak Grove"],
    "next_stop": ["Wellington"],
    "description": "Malden Center - Orange Line - Malden",
    "isHub":false,
    "line_short": "place-mlmnl"
  },
  {
    "name": "Massachusetts Avenue",
    "latitude": 42.341512,
    "longitude": -71.083423,
    "municipality": "Boston",
    "wheelchair_boarding": 1,
    "platform_name": null,
    "train_line": "Orange Line",
    "transfer_stations": [],
    "previous_stop": ["Back Bay"],
    "next_stop": ["Ruggles"],
    "description": "Massachusetts Avenue - Orange Line - Boston",
    "isHub":false,
    "line_short": "place-masta"
  },
  {
    "name": "Oak Grove",
    "latitude": 42.43668,
    "longitude": -71.071097,
    "municipality": "Malden",
    "wheelchair_boarding": 1,
    "platform_name": null,
    "train_line": "Orange Line",
    "transfer_stations": [],
    "previous_stop": [""],
    "next_stop": ["Malden Center"],
    "description": "Oak Grove - Orange Line - Malden",
    "isHub":false,
    "line_short": "place-ogmnl"
  },
  {
    "name": "Roxbury Crossing",
    "latitude": 42.331397,
    "longitude": -71.095451,
    "municipality": "Boston",
    "wheelchair_boarding": 1,
    "platform_name": null,
    "train_line": "Orange Line",
    "transfer_stations": [],
    "previous_stop": ["Ruggles"],
    "next_stop": ["Jackson Square"],
    "description": "Roxbury Crossing - Orange Line - Boston",
    "isHub":false,
    "line_short": "place-rcmnl"
  },
  {
    "name": "Ruggles",
    "latitude": 42.336377,
    "longitude": -71.088961,
    "municipality": "Boston",
    "wheelchair_boarding": 1,
    "platform_name": null,
    "train_line": "Orange Line",
    "transfer_stations": [],
    "previous_stop": ["Massachusetts Avenue"],
    "next_stop": ["Roxbury Crossing"],
    "description": "Ruggles - Orange Line - Boston",
    "isHub":false,
    "line_short": "place-rugg"
  },
  {
    "name": "Stony Brook",
    "latitude": 42.317062,
    "longitude": -71.104248,
    "municipality": "Boston",
    "wheelchair_boarding": 1,
    "platform_name": null,
    "train_line": "Orange Line",
    "transfer_stations": [],
    "previous_stop": ["Jackson Square"],
    "next_stop": ["Green Street"],
    "description": "Stony Brook - Orange Line - Boston",
    "isHub":false,
    "line_short": "place-sbmnl"
  },
  {
    "name": "Sullivan Square",
    "latitude": 42.383975,
    "longitude": -71.076994,
    "municipality": "Boston",
    "wheelchair_boarding": 1,
    "platform_name": null,
    "train_line": "Orange Line",
    "transfer_stations": [],
    "previous_stop": ["Assembly"],
    "next_stop": ["Community College"],
    "description": "Sullivan Square - Orange Line - Boston",
    "isHub":false,
    "line_short": "place-sull"
  },
  {
    "name": "Tufts Medical Center",
    "latitude": 42.349662,
    "longitude": -71.063917,
    "municipality": "Boston",
    "wheelchair_boarding": 1,
    "platform_name": null,
    "train_line": "Orange Line",
    "transfer_stations": [],
    "previous_stop": ["Chinatown"],
    "next_stop": ["Back Bay"],
    "description": "Tufts Medical Center - Orange Line - Boston",
    "isHub":false,
    "line_short": "place-tumnl"
  },
  {
    "name": "Wellington",
    "latitude": 42.40237,
    "longitude": -71.077082,
    "municipality": "Medford",
    "wheelchair_boarding": 1,
    "platform_name": null,
    "train_line": "Orange Line",
    "transfer_stations": [],
    "previous_stop": ["Malden Center"],
    "next_stop": ["Assembly"],
    "description": "Wellington - Orange Line - Medford",
    "isHub":false,
    "line_short": "place-welln"
  },
  {
    "name": "Alewife",
    "latitude": 42.39583,
    "longitude": -71.141287,
    "municipality": "Cambridge",
    "wheelchair_boarding": 1,
    "platform_name": null,
    "train_line": "Red Line",
    "transfer_stations": [],
    "previous_stop": [""],
    "next_stop": ["Davis"],
    "description": "Alewife - Red Line - Cambridge",
    "isHub":false,
    "line_short": "place-alfcl"
  },
  {
    "name": "Andrew",
    "latitude": 42.330154,
    "longitude": -71.057655,
    "municipality": "Boston",
    "wheelchair_boarding": 1,
    "platform_name": null,
    "train_line": "Red Line",
    "transfer_stations": [],
    "previous_stop": ["Broadway"],
    "next_stop": ["JFK/UMass"],
    "description": "Andrew - Red Line - Boston",
    "isHub":false,
    "line_short": "place-andrw"
  },
  {
    "name": "Braintree",
    "latitude": 42.207854,
    "longitude": -71.001138,
    "municipality": "Braintree",
    "wheelchair_boarding": 1,
    "platform_name": null,
    "train_line": "Red Line",
    "transfer_stations": [],
    "previous_stop": ["Quincy Adams"],
    "next_stop": [""],
    "description": "Braintree - Red Line - Braintree",
    "isHub":false,
    "line_short": "place-brntn"
  },
  {
    "name": "Broadway",
    "latitude": 42.342622,
    "longitude": -71.056967,
    "municipality": "Boston",
    "wheelchair_boarding": 1,
    "platform_name": null,
    "train_line": "Red Line",
    "transfer_stations": [],
    "previous_stop": ["JFK/UMass"],
    "next_stop": ["Andrew"],
    "description": "Broadway - Red Line - Boston",
    "isHub":false,
    "line_short": "place-brdwy"
  },
  {
    "name": "Central",
    "latitude": 42.365486,
    "longitude": -71.103802,
    "municipality": "Cambridge",
    "wheelchair_boarding": 1,
    "platform_name": null,
    "train_line": "Red Line",
    "transfer_stations": [],
    "previous_stop": ["Harvard"],
    "next_stop": ["Kendall/MIT"],
    "description": "Central - Red Line - Cambridge",
    "isHub":false,
    "line_short": "place-cntsq"
  },
  {
    "name": "Charles/MGH",
    "latitude": 42.361166,
    "longitude": -71.070628,
    "municipality": "Boston",
    "wheelchair_boarding": 1,
    "platform_name": null,
    "train_line": "Red Line",
    "transfer_stations": [],
    "previous_stop": ["Kendall/MIT"],
    "next_stop": ["Park Street"],
    "description": "Charles/MGH - Red Line - Boston",
    "isHub":false,
    "line_short": "place-chmnl"
  },
  {
    "name": "Davis",
    "latitude": 42.39674,
    "longitude": -71.121815,
    "municipality": "Somerville",
    "wheelchair_boarding": 1,
    "platform_name": null,
    "train_line": "Red Line",
    "transfer_stations": [],
    "previous_stop": ["Alewife"],
    "next_stop": ["Porter"],
    "description": "Davis - Red Line - Somerville",
    "isHub":false,
    "line_short": "place-davis"
  },
  {
    "name": "Fields Corner",
    "latitude": 42.300093,
    "longitude": -71.061667,
    "municipality": "Boston",
    "wheelchair_boarding": 1,
    "platform_name": null,
    "train_line": "Red Line",
    "transfer_stations": [],
    "previous_stop": ["Savin Hill"],
    "next_stop": ["Shawmut"],
    "description": "Fields Corner - Red Line - Boston",
    "isHub":false,
    "line_short": "place-fldcr"
  },
  {
    "name": "Harvard",
    "latitude": 42.373362,
    "longitude": -71.118956,
    "municipality": "Cambridge",
    "wheelchair_boarding": 1,
    "platform_name": null,
    "train_line": "Red Line",
    "transfer_stations": [],
    "previous_stop": ["Davis"],
    "next_stop": ["Central"],
    "description": "Harvard - Red Line - Cambridge",
    "isHub":false,
    "line_short": "place-harsq"
  },
  {
    "name": "JFK/UMass",
    "latitude": 42.320685,
    "longitude": -71.052391,
    "municipality": "Boston",
    "wheelchair_boarding": 1,
    "platform_name": null,
    "train_line": "Red Line",
    "transfer_stations": [],
    "previous_stop": ["Andrew"],
    "next_stop": ["North Quincy"],
    "description": "JFK/UMass - Red Line - Boston",
    "isHub":false,
    "line_short": "place-jfk"
  },
  {
    "name": "Kendall/MIT",
    "latitude": 42.362491,
    "longitude": -71.086176,
    "municipality": "Cambridge",
    "wheelchair_boarding": 1,
    "platform_name": null,
    "train_line": "Red Line",
    "transfer_stations": [],
    "previous_stop": ["Central"],
    "next_stop": ["Charles/MGH"],
    "description": "Kendall/MIT - Red Line - Cambridge",
    "isHub":false,
    "line_short": "place-knncl"
  },
  {
    "name": "North Quincy",
    "latitude": 42.275275,
    "longitude": -71.029583,
    "municipality": "Quincy",
    "wheelchair_boarding": 1,
    "platform_name": null,
    "train_line": "Red Line",
    "transfer_stations": [],
    "previous_stop": ["JFK/UMass"],
    "next_stop": ["Wollaston"],
    "description": "North Quincy - Red Line - Quincy",
    "isHub":false,
    "line_short": "place-nqncy"
  },
  {
    "name": "Porter",
    "latitude": 42.3884,
    "longitude": -71.119149,
    "municipality": "Cambridge",
    "wheelchair_boarding": 1,
    "platform_name": null,
    "train_line": "Red Line",
    "transfer_stations": [],
    "previous_stop": ["Davis"],
    "next_stop": ["Harvard"],
    "description": "Porter - Red Line - Cambridge",
    "isHub":false,
    "line_short": "place-portr"
  },
  {
    "name": "Quincy Adams",
    "latitude": 42.233391,
    "longitude": -71.007153,
    "municipality": "Quincy",
    "wheelchair_boarding": 1,
    "platform_name": null,
    "train_line": "Red Line",
    "transfer_stations": [],
    "previous_stop": ["Quincy Center"],
    "next_stop": ["Braintree"],
    "description": "Quincy Adams - Red Line - Quincy",
    "isHub":false,
    "line_short": "place-qamnl"
  },
  {
    "name": "Quincy Center",
    "latitude": 42.251809,
    "longitude": -71.005409,
    "municipality": "Quincy",
    "wheelchair_boarding": 1,
    "platform_name": null,
    "train_line": "Red Line",
    "transfer_stations": [],
    "previous_stop": ["Wollaston"],
    "next_stop": ["Quincy Adams"],
    "description": "Quincy Center - Red Line - Quincy",
    "isHub":false,
    "line_short": "place-qnctr"
  },
  {
    "name": "Savin Hill",
    "latitude": 42.31129,
    "longitude": -71.053331,
    "municipality": "Boston",
    "wheelchair_boarding": 1,
    "platform_name": null,
    "train_line": "Red Line",
    "transfer_stations": [],
    "previous_stop": ["JFK/UMass"],
    "next_stop": ["Fields Corner"],
    "description": "Savin Hill - Red Line - Boston",
    "isHub":false,
    "line_short": "place-shmnl"
  },
  {
    "name": "Shawmut",
    "latitude": 42.293126,
    "longitude": -71.065738,
    "municipality": "Boston",
    "wheelchair_boarding": 1,
    "platform_name": null,
    "train_line": "Red Line",
    "transfer_stations": [],
    "previous_stop": ["Fields Corner"],
    "next_stop": ["Ashmont"],
    "description": "Shawmut - Red Line - Boston",
    "isHub":false,
    "line_short": "place-smmnl"
  },
  {
    "name": "South-station",
    "latitude": 42.352271,
    "longitude": -71.055242,
    "municipality": "Boston",
    "wheelchair_boarding": 1,
    "platform_name": null,
    "train_line": "Red Line",
    "transfer_stations": [],
    "previous_stop": ["Downtown Crossing"],
    "next_stop": ["Broadway"],
    "description": "South-station - Red Line - Boston",
    "isHub":false,
    "line_short": "place-sstat"
  },
  {
    "name": "Wollaston",
    "latitude": 42.266514,
    "longitude": -71.020337,
    "municipality": "Quincy",
    "wheelchair_boarding": 1,
    "platform_name": null,
    "train_line": "Red Line",
    "transfer_stations": [],
    "previous_stop": ["North Quincy"],
    "next_stop": ["Quincy Center"],
    "description": "Wollaston - Red Line - Quincy",
    "isHub":false,
    "line_short": "place-wlsta"
  }
]
